{
"type": "FeatureCollection",
"name": "trusts",
"crs": { "type": "name", "properties": { "name": "urn:ogc:def:crs:OGC:1.3:CRS84" } },
"features": [
{ "type": "Feature", "properties": { "name": "AIREDALE NHS FOUNDATION TRUST", "org_id": "RCF", "post_code": "BD20 6TD" }, "geometry": { "type": "Point", "coordinates": [ -1.964989, 53.89763915 ] } },
{ "type": "Feature", "properties": { "name": "ALDER HEY CHILDREN'S NHS FOUNDATION TRUST", "org_id": "RBS", "post_code": "L12 2AP" }, "geometry": { "type": "Point", "coordinates": [ -2.8978, 53.42125 ] } },
{ "type": "Feature", "properties": { "name": "ASHFORD AND ST PETER'S HOSPITALS NHS FOUNDATION TRUST", "org_id": "RTK", "post_code": "KT16 0PZ" }, "geometry": { "type": "Point", "coordinates": [ -0.5262388, 51.3766453 ] } },
{ "type": "Feature", "properties": { "name": "AVON AND WILTSHIRE MENTAL HEALTH PARTNERSHIP NHS TRUST", "org_id": "RVN", "post_code": "BA1 3QE" }, "geometry": { "type": "Point", "coordinates": [ -2.39231, 51.3885999 ] } },
{ "type": "Feature", "properties": { "name": "BARKING, HAVERING AND REDBRIDGE UNIVERSITY HOSPITALS NHS TRUST", "org_id": "RF4", "post_code": "RM7 0AG" }, "geometry": { "type": "Point", "coordinates": [ 0.18083295, 51.56820595 ] } },
{ "type": "Feature", "properties": { "name": "BARNET, ENFIELD AND HARINGEY MENTAL HEALTH NHS TRUST", "org_id": "RRP", "post_code": "N15 3TH" }, "geometry": { "type": "Point", "coordinates": [ -0.0898069, 51.5798282 ] } },
{ "type": "Feature", "properties": { "name": "BARNSLEY HOSPITAL NHS FOUNDATION TRUST", "org_id": "RFF", "post_code": "S75 2EP" }, "geometry": { "type": "Point", "coordinates": [ -1.49949, 53.55913 ] } },
{ "type": "Feature", "properties": { "name": "BARTS AND THE LONDON NHS TRUST", "org_id": "RNJ", "post_code": "E1 1BB" }, "geometry": { "type": "Point", "coordinates": [ -0.0595585, 51.51794173333333 ] } },
{ "type": "Feature", "properties": { "name": "BARTS HEALTH NHS TRUST", "org_id": "R1H", "post_code": "E1 2ES" }, "geometry": { "type": "Point", "coordinates": [ -0.05605, 51.51717 ] } },
{ "type": "Feature", "properties": { "name": "BASILDON AND THURROCK UNIVERSITY HOSPITALS NHS FOUNDATION TRUST", "org_id": "RDD", "post_code": "SS16 5NL" }, "geometry": { "type": "Point", "coordinates": [ 0.4510627, 51.5581374 ] } },
{ "type": "Feature", "properties": { "name": "BEDFORD HOSPITAL NHS TRUST", "org_id": "RC1", "post_code": "MK42 9DJ" }, "geometry": { "type": "Point", "coordinates": [ -0.4724881, 52.1287054 ] } },
{ "type": "Feature", "properties": { "name": "BEDFORDSHIRE HOSPITALS NHS FOUNDATION TRUST", "org_id": "RC9", "post_code": "LU4 0DZ" }, "geometry": { "type": "Point", "coordinates": [ -0.4742934, 51.8938451 ] } },
{ "type": "Feature", "properties": { "name": "BERKSHIRE HEALTHCARE NHS FOUNDATION TRUST", "org_id": "RWX", "post_code": "RG12 2UT" }, "geometry": { "type": "Point", "coordinates": [ -0.739521, 51.4162039 ] } },
{ "type": "Feature", "properties": { "name": "BIRMINGHAM AND SOLIHULL MENTAL HEALTH NHS FOUNDATION TRUST", "org_id": "RXT", "post_code": "B1 3RB" }, "geometry": { "type": "Point", "coordinates": [ -1.91766305, 52.48416265 ] } },
{ "type": "Feature", "properties": { "name": "BIRMINGHAM COMMUNITY HEALTHCARE NHS FOUNDATION TRUST", "org_id": "RYW", "post_code": "B7 4BN" }, "geometry": { "type": "Point", "coordinates": [ -1.88628205, 52.4875426 ] } },
{ "type": "Feature", "properties": { "name": "BIRMINGHAM WOMEN'S AND CHILDREN'S NHS FOUNDATION TRUST", "org_id": "RQ3", "post_code": "B4 6NH" }, "geometry": { "type": "Point", "coordinates": [ -1.89424115, 52.4849032 ] } },
{ "type": "Feature", "properties": { "name": "BIRMINGHAM WOMEN'S NHS FOUNDATION TRUST", "org_id": "RLU", "post_code": "B15 2TG" }, "geometry": { "type": "Point", "coordinates": [ -1.9428605, 52.4532477 ] } },
{ "type": "Feature", "properties": { "name": "BLACKPOOL TEACHING HOSPITALS NHS FOUNDATION TRUST", "org_id": "RXL", "post_code": "FY3 8NR" }, "geometry": { "type": "Point", "coordinates": [ -3.01282045, 53.82056863 ] } },
{ "type": "Feature", "properties": { "name": "BOLTON NHS FOUNDATION TRUST", "org_id": "RMC", "post_code": "BL4 0JR" }, "geometry": { "type": "Point", "coordinates": [ -2.42954, 53.5522814 ] } },
{ "type": "Feature", "properties": { "name": "BRADFORD TEACHING HOSPITALS NHS FOUNDATION TRUST", "org_id": "RAE", "post_code": "BD9 6RJ" }, "geometry": { "type": "Point", "coordinates": [ -1.796465166666667, 53.80643576666666 ] } },
{ "type": "Feature", "properties": { "name": "BRIDGEWATER COMMUNITY HEALTHCARE NHS FOUNDATION TRUST", "org_id": "RY2", "post_code": "WA3 7PG" }, "geometry": { "type": "Point", "coordinates": [ -2.528533, 53.414084416666668 ] } },
{ "type": "Feature", "properties": { "name": "BRIGHTON AND SUSSEX UNIVERSITY HOSPITALS NHS TRUST", "org_id": "RXH", "post_code": "BN2 5BE" }, "geometry": { "type": "Point", "coordinates": [ -0.118152457142857, 50.8194391 ] } },
{ "type": "Feature", "properties": { "name": "BUCKINGHAMSHIRE HEALTHCARE NHS TRUST", "org_id": "RXQ", "post_code": "HP7 0JD" }, "geometry": { "type": "Point", "coordinates": [ -0.62143, 51.6629999 ] } },
{ "type": "Feature", "properties": { "name": "BURTON HOSPITALS NHS FOUNDATION TRUST", "org_id": "RJF", "post_code": "DE13 0RB" }, "geometry": { "type": "Point", "coordinates": [ -1.6566665, 52.8177353 ] } },
{ "type": "Feature", "properties": { "name": "CALDERDALE AND HUDDERSFIELD NHS FOUNDATION TRUST", "org_id": "RWY", "post_code": "HD3 3EA" }, "geometry": { "type": "Point", "coordinates": [ -1.81634, 53.65547 ] } },
{ "type": "Feature", "properties": { "name": "CAMBRIDGESHIRE AND PETERBOROUGH NHS FOUNDATION TRUST", "org_id": "RT1", "post_code": "CB21 5EF" }, "geometry": { "type": "Point", "coordinates": [ 0.188339, 52.1848097 ] } },
{ "type": "Feature", "properties": { "name": "CAMBRIDGESHIRE COMMUNITY SERVICES NHS TRUST", "org_id": "RYV", "post_code": "PE27 4LG" }, "geometry": { "type": "Point", "coordinates": [ -0.063814566666667, 52.3210626 ] } },
{ "type": "Feature", "properties": { "name": "CAMBRIDGE UNIVERSITY HOSPITALS NHS FOUNDATION TRUST", "org_id": "RGT", "post_code": "CB2 0QQ" }, "geometry": { "type": "Point", "coordinates": [ 0.13911, 52.17374 ] } },
{ "type": "Feature", "properties": { "name": "CENTRAL AND NORTH WEST LONDON NHS FOUNDATION TRUST", "org_id": "RV3", "post_code": "NW1 3AX" }, "geometry": { "type": "Point", "coordinates": [ -0.1422208, 51.5242002 ] } },
{ "type": "Feature", "properties": { "name": "CENTRAL LONDON COMMUNITY HEALTHCARE NHS TRUST", "org_id": "RYX", "post_code": "NW1 5JD" }, "geometry": { "type": "Point", "coordinates": [ -0.15154, 51.52284 ] } },
{ "type": "Feature", "properties": { "name": "CENTRAL MANCHESTER UNIVERSITY HOSPITALS NHS FOUNDATION TRUST", "org_id": "RW3", "post_code": "M13 9WL" }, "geometry": { "type": "Point", "coordinates": [ -2.22771, 53.46244 ] } },
{ "type": "Feature", "properties": { "name": "CHELSEA AND WESTMINSTER HOSPITAL NHS FOUNDATION TRUST", "org_id": "RQM", "post_code": "SW10 9NH" }, "geometry": { "type": "Point", "coordinates": [ -0.181603, 51.4842839 ] } },
{ "type": "Feature", "properties": { "name": "CHESHIRE AND WIRRAL PARTNERSHIP NHS FOUNDATION TRUST", "org_id": "RXA", "post_code": "CH2 1BQ" }, "geometry": { "type": "Point", "coordinates": [ -2.8992312, 53.2117014 ] } },
{ "type": "Feature", "properties": { "name": "CHESTERFIELD ROYAL HOSPITAL NHS FOUNDATION TRUST", "org_id": "RFS", "post_code": "S44 5BL" }, "geometry": { "type": "Point", "coordinates": [ -1.40005, 53.23621 ] } },
{ "type": "Feature", "properties": { "name": "CORNWALL PARTNERSHIP NHS FOUNDATION TRUST", "org_id": "RJ8", "post_code": "PL31 2QN" }, "geometry": { "type": "Point", "coordinates": [ -4.74082, 50.47176 ] } },
{ "type": "Feature", "properties": { "name": "COUNTESS OF CHESTER HOSPITAL NHS FOUNDATION TRUST", "org_id": "RJR", "post_code": "CH2 1UL" }, "geometry": { "type": "Point", "coordinates": [ -2.8994141, 53.20984215 ] } },
{ "type": "Feature", "properties": { "name": "COUNTY DURHAM AND DARLINGTON NHS FOUNDATION TRUST", "org_id": "RXP", "post_code": "DL3 6HX" }, "geometry": { "type": "Point", "coordinates": [ -1.5636355, 54.5306627 ] } },
{ "type": "Feature", "properties": { "name": "COVENTRY AND WARWICKSHIRE PARTNERSHIP NHS TRUST", "org_id": "RYG", "post_code": "CV6 6NY" }, "geometry": { "type": "Point", "coordinates": [ -1.48692, 52.45659 ] } },
{ "type": "Feature", "properties": { "name": "CROYDON HEALTH SERVICES NHS TRUST", "org_id": "RJ6", "post_code": "CR7 7YE" }, "geometry": { "type": "Point", "coordinates": [ -0.1102686, 51.3900178 ] } },
{ "type": "Feature", "properties": { "name": "CUMBRIA, NORTHUMBERLAND, TYNE AND WEAR NHS FOUNDATION TRUST", "org_id": "RX4", "post_code": "NE3 3XT" }, "geometry": { "type": "Point", "coordinates": [ -1.6331, 55.00649 ] } },
{ "type": "Feature", "properties": { "name": "DARTFORD AND GRAVESHAM NHS TRUST", "org_id": "RN7", "post_code": "DA2 8DA" }, "geometry": { "type": "Point", "coordinates": [ 0.2592812, 51.4347634 ] } },
{ "type": "Feature", "properties": { "name": "DERBYSHIRE COMMUNITY HEALTH SERVICES NHS FOUNDATION TRUST", "org_id": "RY8", "post_code": "S42 7JE" }, "geometry": { "type": "Point", "coordinates": [ -1.4794799, 53.2396699 ] } },
{ "type": "Feature", "properties": { "name": "DERBYSHIRE HEALTHCARE NHS FOUNDATION TRUST", "org_id": "RXM", "post_code": "DE22 3LZ" }, "geometry": { "type": "Point", "coordinates": [ -1.512895833333333, 52.918305866666671 ] } },
{ "type": "Feature", "properties": { "name": "DEVON PARTNERSHIP NHS TRUST", "org_id": "RWV", "post_code": "EX2 5AF" }, "geometry": { "type": "Point", "coordinates": [ -3.5064242, 50.7155182 ] } },
{ "type": "Feature", "properties": { "name": "DONCASTER AND BASSETLAW TEACHING HOSPITALS NHS FOUNDATION TRUST", "org_id": "RP5", "post_code": "DN2 5LT" }, "geometry": { "type": "Point", "coordinates": [ -1.10894, 53.53078 ] } },
{ "type": "Feature", "properties": { "name": "DORSET COUNTY HOSPITAL NHS FOUNDATION TRUST", "org_id": "RBD", "post_code": "DT1 2JY" }, "geometry": { "type": "Point", "coordinates": [ -2.44694, 50.71294 ] } },
{ "type": "Feature", "properties": { "name": "DORSET HEALTHCARE UNIVERSITY NHS FOUNDATION TRUST", "org_id": "RDY", "post_code": "BH17 0RB" }, "geometry": { "type": "Point", "coordinates": [ -1.9806425, 50.7393002 ] } },
{ "type": "Feature", "properties": { "name": "DUDLEY INTEGRATED HEALTH AND CARE NHS TRUST", "org_id": "RYK", "post_code": "DY5 1RU" }, "geometry": { "type": "Point", "coordinates": [ -2.11786, 52.48176 ] } },
{ "type": "Feature", "properties": { "name": "EALING HOSPITAL NHS TRUST", "org_id": "RC3", "post_code": "UB1 3HW" }, "geometry": { "type": "Point", "coordinates": [ -0.34480975, 51.5077567 ] } },
{ "type": "Feature", "properties": { "name": "EAST AND NORTH HERTFORDSHIRE NHS TRUST", "org_id": "RWH", "post_code": "SG1 4AB" }, "geometry": { "type": "Point", "coordinates": [ -0.2121547, 51.9244338 ] } },
{ "type": "Feature", "properties": { "name": "EAST CHESHIRE NHS TRUST", "org_id": "RJN", "post_code": "SK10 3BL" }, "geometry": { "type": "Point", "coordinates": [ -2.1404771, 53.26247105 ] } },
{ "type": "Feature", "properties": { "name": "EAST KENT HOSPITALS UNIVERSITY NHS FOUNDATION TRUST", "org_id": "RVV", "post_code": "CT1 3NG" }, "geometry": { "type": "Point", "coordinates": [ 1.0874518, 51.2663722 ] } },
{ "type": "Feature", "properties": { "name": "EAST LANCASHIRE HOSPITALS NHS TRUST", "org_id": "RXR", "post_code": "BB2 3HH" }, "geometry": { "type": "Point", "coordinates": [ -2.4635709, 53.7359807 ] } },
{ "type": "Feature", "properties": { "name": "EAST LONDON NHS FOUNDATION TRUST", "org_id": "RWK", "post_code": "E1 8DE" }, "geometry": { "type": "Point", "coordinates": [ -0.072287533333333, 51.513501766666671 ] } },
{ "type": "Feature", "properties": { "name": "EAST MIDLANDS AMBULANCE SERVICE NHS TRUST", "org_id": "RX9", "post_code": "NG8 6PY" }, "geometry": { "type": "Point", "coordinates": [ -1.238102161111111, 52.981522072222219 ] } },
{ "type": "Feature", "properties": { "name": "EAST OF ENGLAND AMBULANCE SERVICE NHS TRUST", "org_id": "RYC", "post_code": "SG8 6NA" }, "geometry": { "type": "Point", "coordinates": [ 0.0141455, 52.0766227 ] } },
{ "type": "Feature", "properties": { "name": "EAST SUFFOLK AND NORTH ESSEX NHS FOUNDATION TRUST", "org_id": "RDE", "post_code": "CO4 5JL" }, "geometry": { "type": "Point", "coordinates": [ 0.8989391, 51.9098515 ] } },
{ "type": "Feature", "properties": { "name": "EAST SUSSEX HEALTHCARE NHS TRUST", "org_id": "RXC", "post_code": "TN37 7PT" }, "geometry": { "type": "Point", "coordinates": [ 0.5615019, 50.8882967 ] } },
{ "type": "Feature", "properties": { "name": "EPSOM AND ST HELIER UNIVERSITY HOSPITALS NHS TRUST", "org_id": "RVR", "post_code": "SM5 1AA" }, "geometry": { "type": "Point", "coordinates": [ -0.184936225, 51.380458825 ] } },
{ "type": "Feature", "properties": { "name": "ESSEX PARTNERSHIP UNIVERSITY NHS FOUNDATION TRUST", "org_id": "R1L", "post_code": "SS11 7XX" }, "geometry": { "type": "Point", "coordinates": [ 0.5396917, 51.6310333 ] } },
{ "type": "Feature", "properties": { "name": "FRIMLEY HEALTH NHS FOUNDATION TRUST", "org_id": "RDU", "post_code": "GU16 7UJ" }, "geometry": { "type": "Point", "coordinates": [ -0.741712533333333, 51.3199061 ] } },
{ "type": "Feature", "properties": { "name": "GATESHEAD HEALTH NHS FOUNDATION TRUST", "org_id": "RR7", "post_code": "NE9 6SX" }, "geometry": { "type": "Point", "coordinates": [ -1.58111405, 54.93784345 ] } },
{ "type": "Feature", "properties": { "name": "GEORGE ELIOT HOSPITAL NHS TRUST", "org_id": "RLT", "post_code": "CV10 7DJ" }, "geometry": { "type": "Point", "coordinates": [ -1.47844, 52.51258 ] } },
{ "type": "Feature", "properties": { "name": "GLOUCESTERSHIRE CARE SERVICES NHS TRUST", "org_id": "R1J", "post_code": "GL3 4AW" }, "geometry": { "type": "Point", "coordinates": [ -2.17648, 51.8471078 ] } },
{ "type": "Feature", "properties": { "name": "GLOUCESTERSHIRE HEALTH AND CARE NHS FOUNDATION TRUST", "org_id": "RTQ", "post_code": "GL3 4AW" }, "geometry": { "type": "Point", "coordinates": [ -2.17648, 51.8471078 ] } },
{ "type": "Feature", "properties": { "name": "GLOUCESTERSHIRE HOSPITALS NHS FOUNDATION TRUST", "org_id": "RTE", "post_code": "GL53 7AN" }, "geometry": { "type": "Point", "coordinates": [ -2.0719683, 51.8921411 ] } },
{ "type": "Feature", "properties": { "name": "GREATER MANCHESTER MENTAL HEALTH NHS FOUNDATION TRUST", "org_id": "RXV", "post_code": "M25 3BL" }, "geometry": { "type": "Point", "coordinates": [ -2.295755333333333, 53.533573133333334 ] } },
{ "type": "Feature", "properties": { "name": "GREAT ORMOND STREET HOSPITAL FOR CHILDREN NHS FOUNDATION TRUST", "org_id": "RP4", "post_code": "WC1N 3JH" }, "geometry": { "type": "Point", "coordinates": [ -0.12045525, 51.5222431 ] } },
{ "type": "Feature", "properties": { "name": "GREAT WESTERN HOSPITALS NHS FOUNDATION TRUST", "org_id": "RN3", "post_code": "SN3 6BB" }, "geometry": { "type": "Point", "coordinates": [ -1.7263778, 51.5384852 ] } },
{ "type": "Feature", "properties": { "name": "GUY'S AND ST THOMAS' NHS FOUNDATION TRUST", "org_id": "RJ1", "post_code": "SE1 7EH" }, "geometry": { "type": "Point", "coordinates": [ -0.11902804, 51.49869091 ] } },
{ "type": "Feature", "properties": { "name": "HAMMERSMITH HOSPITALS NHS TRUST", "org_id": "RQN", "post_code": "W12 0HS" }, "geometry": { "type": "Point", "coordinates": [ -0.2373684, 51.5163529 ] } },
{ "type": "Feature", "properties": { "name": "HAMPSHIRE HOSPITALS NHS FOUNDATION TRUST", "org_id": "RN5", "post_code": "RG24 9NA" }, "geometry": { "type": "Point", "coordinates": [ -1.10991855, 51.2820482 ] } },
{ "type": "Feature", "properties": { "name": "HARROGATE AND DISTRICT NHS FOUNDATION TRUST", "org_id": "RCD", "post_code": "HG2 7SX" }, "geometry": { "type": "Point", "coordinates": [ -1.5180971, 53.9938316 ] } },
{ "type": "Feature", "properties": { "name": "HEART OF ENGLAND NHS FOUNDATION TRUST", "org_id": "RR1", "post_code": "B9 5ST" }, "geometry": { "type": "Point", "coordinates": [ -1.8287586, 52.4780976 ] } },
{ "type": "Feature", "properties": { "name": "HEATHERWOOD AND WEXHAM PARK HOSPITALS NHS FOUNDATION TRUST", "org_id": "RD7", "post_code": "SL2 4HL" }, "geometry": { "type": "Point", "coordinates": [ -0.57399, 51.53201 ] } },
{ "type": "Feature", "properties": { "name": "HEREFORDSHIRE AND WORCESTERSHIRE HEALTH AND CARE NHS TRUST", "org_id": "R1A", "post_code": "WR5 1JR" }, "geometry": { "type": "Point", "coordinates": [ -2.179037866666667, 52.1921622 ] } },
{ "type": "Feature", "properties": { "name": "HERTFORDSHIRE COMMUNITY NHS TRUST", "org_id": "RY4", "post_code": "AL7 1BW" }, "geometry": { "type": "Point", "coordinates": [ -0.19420635, 51.8021534 ] } },
{ "type": "Feature", "properties": { "name": "HERTFORDSHIRE PARTNERSHIP UNIVERSITY NHS FOUNDATION TRUST", "org_id": "RWR", "post_code": "AL10 8YE" }, "geometry": { "type": "Point", "coordinates": [ -0.2166447, 51.7669801 ] } },
{ "type": "Feature", "properties": { "name": "HOMERTON HEALTHCARE NHS FOUNDATION TRUST", "org_id": "RQX", "post_code": "E9 6SR" }, "geometry": { "type": "Point", "coordinates": [ -0.04598355, 51.55005135 ] } },
{ "type": "Feature", "properties": { "name": "HOUNSLOW AND RICHMOND COMMUNITY HEALTHCARE NHS TRUST", "org_id": "RY9", "post_code": "TW11 8HU" }, "geometry": { "type": "Point", "coordinates": [ -0.326230466666667, 51.427467666666672 ] } },
{ "type": "Feature", "properties": { "name": "HULL UNIVERSITY TEACHING HOSPITALS NHS TRUST", "org_id": "RWA", "post_code": "HU3 2JZ" }, "geometry": { "type": "Point", "coordinates": [ -0.3542056, 53.7439724 ] } },
{ "type": "Feature", "properties": { "name": "HUMBER TEACHING NHS FOUNDATION TRUST", "org_id": "RV9", "post_code": "HU10 6ED" }, "geometry": { "type": "Point", "coordinates": [ -0.4446037, 53.772057 ] } },
{ "type": "Feature", "properties": { "name": "IMPERIAL COLLEGE HEALTHCARE NHS TRUST", "org_id": "RYJ", "post_code": "W2 1BL" }, "geometry": { "type": "Point", "coordinates": [ -0.1753826, 51.5174679 ] } },
{ "type": "Feature", "properties": { "name": "IPSWICH HOSPITAL NHS TRUST", "org_id": "RGQ", "post_code": "IP4 5PD" }, "geometry": { "type": "Point", "coordinates": [ 1.19793665, 52.057037875 ] } },
{ "type": "Feature", "properties": { "name": "ISLE OF WIGHT NHS TRUST", "org_id": "R1F", "post_code": "PO30 5TG" }, "geometry": { "type": "Point", "coordinates": [ -1.301087275, 50.711856475 ] } },
{ "type": "Feature", "properties": { "name": "JAMES PAGET UNIVERSITY HOSPITALS NHS FOUNDATION TRUST", "org_id": "RGP", "post_code": "NR31 6LA" }, "geometry": { "type": "Point", "coordinates": [ 1.7176868, 52.5616405 ] } },
{ "type": "Feature", "properties": { "name": "KENT AND MEDWAY NHS AND SOCIAL CARE PARTNERSHIP TRUST", "org_id": "RXY", "post_code": "ME16 9PH" }, "geometry": { "type": "Point", "coordinates": [ 0.4866078, 51.2725763 ] } },
{ "type": "Feature", "properties": { "name": "KENT COMMUNITY HEALTH NHS FOUNDATION TRUST", "org_id": "RYY", "post_code": "TN25 4AZ" }, "geometry": { "type": "Point", "coordinates": [ 0.87097458, 51.17165272 ] } },
{ "type": "Feature", "properties": { "name": "KETTERING GENERAL HOSPITAL NHS FOUNDATION TRUST", "org_id": "RNQ", "post_code": "NN16 8UZ" }, "geometry": { "type": "Point", "coordinates": [ -0.7427838, 52.40246875 ] } },
{ "type": "Feature", "properties": { "name": "KING'S COLLEGE HOSPITAL NHS FOUNDATION TRUST", "org_id": "RJZ", "post_code": "SE5 9RS" }, "geometry": { "type": "Point", "coordinates": [ -0.093666925, 51.468693075 ] } },
{ "type": "Feature", "properties": { "name": "KINGSTON HOSPITAL NHS FOUNDATION TRUST", "org_id": "RAX", "post_code": "KT2 7QB" }, "geometry": { "type": "Point", "coordinates": [ -0.2825102, 51.4149843 ] } },
{ "type": "Feature", "properties": { "name": "LANCASHIRE & SOUTH CUMBRIA NHS FOUNDATION TRUST", "org_id": "RW5", "post_code": "PR5 6AW" }, "geometry": { "type": "Point", "coordinates": [ -2.64102015, 53.71864585 ] } },
{ "type": "Feature", "properties": { "name": "LANCASHIRE TEACHING HOSPITALS NHS FOUNDATION TRUST", "org_id": "RXN", "post_code": "PR2 9HT" }, "geometry": { "type": "Point", "coordinates": [ -2.706316125, 53.791064875 ] } },
{ "type": "Feature", "properties": { "name": "LEEDS AND YORK PARTNERSHIP NHS FOUNDATION TRUST", "org_id": "RGD", "post_code": "LS7 3JX" }, "geometry": { "type": "Point", "coordinates": [ -1.53496, 53.82104 ] } },
{ "type": "Feature", "properties": { "name": "LEEDS COMMUNITY HEALTHCARE NHS TRUST", "org_id": "RY6", "post_code": "LS11 0DL" }, "geometry": { "type": "Point", "coordinates": [ -1.57564, 53.76273 ] } },
{ "type": "Feature", "properties": { "name": "LEEDS TEACHING HOSPITALS NHS TRUST", "org_id": "RR8", "post_code": "LS9 7TF" }, "geometry": { "type": "Point", "coordinates": [ -1.521480325, 53.8069351 ] } },
{ "type": "Feature", "properties": { "name": "LEICESTERSHIRE PARTNERSHIP NHS TRUST", "org_id": "RT5", "post_code": "LE4 8PQ" }, "geometry": { "type": "Point", "coordinates": [ -1.1030199, 52.6765 ] } },
{ "type": "Feature", "properties": { "name": "LEWISHAM AND GREENWICH NHS TRUST", "org_id": "RJ2", "post_code": "SE13 6LH" }, "geometry": { "type": "Point", "coordinates": [ -0.01769825, 51.4537118 ] } },
{ "type": "Feature", "properties": { "name": "LINCOLNSHIRE COMMUNITY HEALTH SERVICES NHS TRUST", "org_id": "RY5", "post_code": "LN5 7JH" }, "geometry": { "type": "Point", "coordinates": [ -0.52415, 53.22647 ] } },
{ "type": "Feature", "properties": { "name": "LINCOLNSHIRE PARTNERSHIP NHS FOUNDATION TRUST", "org_id": "RP7", "post_code": "LN1 1FS" }, "geometry": { "type": "Point", "coordinates": [ -0.55691, 53.24403 ] } },
{ "type": "Feature", "properties": { "name": "LIVERPOOL COMMUNITY HEALTH NHS TRUST", "org_id": "RY1", "post_code": "L13 1FB" }, "geometry": { "type": "Point", "coordinates": [ -2.9299076, 53.4040514 ] } },
{ "type": "Feature", "properties": { "name": "LIVERPOOL HEART AND CHEST HOSPITAL NHS FOUNDATION TRUST", "org_id": "RBQ", "post_code": "L14 3PE" }, "geometry": { "type": "Point", "coordinates": [ -2.89991586, 53.41071688 ] } },
{ "type": "Feature", "properties": { "name": "LIVERPOOL UNIVERSITY HOSPITALS NHS FOUNDATION TRUST", "org_id": "REM", "post_code": "L7 8XP" }, "geometry": { "type": "Point", "coordinates": [ -2.9648089, 53.4106201 ] } },
{ "type": "Feature", "properties": { "name": "LIVERPOOL WOMEN'S NHS FOUNDATION TRUST", "org_id": "REP", "post_code": "L8 7SS" }, "geometry": { "type": "Point", "coordinates": [ -2.96008, 53.39846 ] } },
{ "type": "Feature", "properties": { "name": "LONDON AMBULANCE SERVICE NHS TRUST", "org_id": "RRU", "post_code": "SE1 8SD" }, "geometry": { "type": "Point", "coordinates": [ -0.10903, 51.50017 ] } },
{ "type": "Feature", "properties": { "name": "LONDON NORTH WEST UNIVERSITY HEALTHCARE NHS TRUST", "org_id": "R1K", "post_code": "HA1 3UJ" }, "geometry": { "type": "Point", "coordinates": [ -0.3215279, 51.57518 ] } },
{ "type": "Feature", "properties": { "name": "MAIDSTONE AND TUNBRIDGE WELLS NHS TRUST", "org_id": "RWF", "post_code": "ME16 9QQ" }, "geometry": { "type": "Point", "coordinates": [ 0.484431, 51.274735 ] } },
{ "type": "Feature", "properties": { "name": "MANCHESTER UNIVERSITY NHS FOUNDATION TRUST", "org_id": "R0A", "post_code": "M13 9WL" }, "geometry": { "type": "Point", "coordinates": [ -2.22771, 53.46244 ] } },
{ "type": "Feature", "properties": { "name": "MEDWAY NHS FOUNDATION TRUST", "org_id": "RPA", "post_code": "ME7 5NY" }, "geometry": { "type": "Point", "coordinates": [ 0.5416386, 51.3798003 ] } },
{ "type": "Feature", "properties": { "name": "MERSEY AND WEST LANCASHIRE TEACHING HOSPITALS NHS TRUST", "org_id": "RBN", "post_code": "L35 5DR" }, "geometry": { "type": "Point", "coordinates": [ -2.7876834, 53.4200523 ] } },
{ "type": "Feature", "properties": { "name": "MERSEY CARE NHS FOUNDATION TRUST", "org_id": "RW4", "post_code": "L34 1PJ" }, "geometry": { "type": "Point", "coordinates": [ -2.82642, 53.42402 ] } },
{ "type": "Feature", "properties": { "name": "MID AND SOUTH ESSEX NHS FOUNDATION TRUST", "org_id": "RAJ", "post_code": "SS0 0RY" }, "geometry": { "type": "Point", "coordinates": [ 0.6883155, 51.5542554 ] } },
{ "type": "Feature", "properties": { "name": "MID CHESHIRE HOSPITALS NHS FOUNDATION TRUST", "org_id": "RBT", "post_code": "CW1 4QJ" }, "geometry": { "type": "Point", "coordinates": [ -2.4762267, 53.11924 ] } },
{ "type": "Feature", "properties": { "name": "MID ESSEX HOSPITAL SERVICES NHS TRUST", "org_id": "RQ8", "post_code": "CM1 7ET" }, "geometry": { "type": "Point", "coordinates": [ 0.465254255555556, 51.774411077777778 ] } },
{ "type": "Feature", "properties": { "name": "MIDLANDS PARTNERSHIP NHS FOUNDATION TRUST", "org_id": "RRE", "post_code": "ST16 3SR" }, "geometry": { "type": "Point", "coordinates": [ -2.10927, 52.81063 ] } },
{ "type": "Feature", "properties": { "name": "MID STAFFORDSHIRE NHS FOUNDATION TRUST", "org_id": "RJD", "post_code": "ST16 3SA" }, "geometry": { "type": "Point", "coordinates": [ -2.0968631, 52.8114015 ] } },
{ "type": "Feature", "properties": { "name": "MID YORKSHIRE TEACHING NHS TRUST", "org_id": "RXF", "post_code": "WF1 4DG" }, "geometry": { "type": "Point", "coordinates": [ -1.488184192307692, 53.6930006 ] } },
{ "type": "Feature", "properties": { "name": "MILTON KEYNES UNIVERSITY HOSPITAL NHS FOUNDATION TRUST", "org_id": "RD8", "post_code": "MK6 5LD" }, "geometry": { "type": "Point", "coordinates": [ -0.7359102, 52.0262824 ] } },
{ "type": "Feature", "properties": { "name": "MOORFIELDS EYE HOSPITAL NHS FOUNDATION TRUST", "org_id": "RP6", "post_code": "EC1V 2PD" }, "geometry": { "type": "Point", "coordinates": [ -0.0901355, 51.5272967 ] } },
{ "type": "Feature", "properties": { "name": "NHS DIRECT NHS TRUST", "org_id": "RYH", "post_code": "E1 8EU" }, "geometry": { "type": "Point", "coordinates": [ -0.07041565, 51.51328705 ] } },
{ "type": "Feature", "properties": { "name": "NORFOLK AND NORWICH UNIVERSITY HOSPITALS NHS FOUNDATION TRUST", "org_id": "RM1", "post_code": "NR4 7UY" }, "geometry": { "type": "Point", "coordinates": [ 1.22130875, 52.6172528 ] } },
{ "type": "Feature", "properties": { "name": "NORFOLK AND SUFFOLK NHS FOUNDATION TRUST", "org_id": "RMY", "post_code": "NR6 5BE" }, "geometry": { "type": "Point", "coordinates": [ 1.2513472, 52.6596812 ] } },
{ "type": "Feature", "properties": { "name": "NORFOLK COMMUNITY HEALTH AND CARE NHS TRUST", "org_id": "RY3", "post_code": "NR2 3TU" }, "geometry": { "type": "Point", "coordinates": [ 1.2625801, 52.6341417 ] } },
{ "type": "Feature", "properties": { "name": "NORTHAMPTON GENERAL HOSPITAL NHS TRUST", "org_id": "RNS", "post_code": "NN1 5BD" }, "geometry": { "type": "Point", "coordinates": [ -0.8839991, 52.2362387 ] } },
{ "type": "Feature", "properties": { "name": "NORTHAMPTONSHIRE HEALTHCARE NHS FOUNDATION TRUST", "org_id": "RP1", "post_code": "NN15 7PW" }, "geometry": { "type": "Point", "coordinates": [ -0.7206623, 52.3937272 ] } },
{ "type": "Feature", "properties": { "name": "NORTH BRISTOL NHS TRUST", "org_id": "RVJ", "post_code": "BS10 5NB" }, "geometry": { "type": "Point", "coordinates": [ -2.5921841625, 51.496761837500003 ] } },
{ "type": "Feature", "properties": { "name": "NORTH CUMBRIA INTEGRATED CARE NHS FOUNDATION TRUST", "org_id": "RNN", "post_code": "CA2 7HY" }, "geometry": { "type": "Point", "coordinates": [ -2.9583574, 54.896737 ] } },
{ "type": "Feature", "properties": { "name": "NORTH CUMBRIA UNIVERSITY HOSPITALS NHS TRUST", "org_id": "RNL", "post_code": "CA2 7HY" }, "geometry": { "type": "Point", "coordinates": [ -2.9583574, 54.896737 ] } },
{ "type": "Feature", "properties": { "name": "NORTH EAST AMBULANCE SERVICE NHS FOUNDATION TRUST", "org_id": "RX6", "post_code": "NE15 8NY" }, "geometry": { "type": "Point", "coordinates": [ -1.7109424, 54.96877165 ] } },
{ "type": "Feature", "properties": { "name": "NORTH EAST LONDON NHS FOUNDATION TRUST", "org_id": "RAT", "post_code": "RM13 8GQ" }, "geometry": { "type": "Point", "coordinates": [ 0.17113, 51.51858 ] } },
{ "type": "Feature", "properties": { "name": "NORTHERN CARE ALLIANCE NHS FOUNDATION TRUST", "org_id": "RM3", "post_code": "M6 8HD" }, "geometry": { "type": "Point", "coordinates": [ -2.3243642, 53.4874685 ] } },
{ "type": "Feature", "properties": { "name": "NORTHERN LINCOLNSHIRE AND GOOLE NHS FOUNDATION TRUST", "org_id": "RJL", "post_code": "DN33 2BA" }, "geometry": { "type": "Point", "coordinates": [ -0.09623, 53.54486 ] } },
{ "type": "Feature", "properties": { "name": "NORTH ESSEX PARTNERSHIP UNIVERSITY NHS FOUNDATION TRUST", "org_id": "RRD", "post_code": "CM2 0QX" }, "geometry": { "type": "Point", "coordinates": [ 0.46716, 51.72981 ] } },
{ "type": "Feature", "properties": { "name": "NORTH MIDDLESEX UNIVERSITY HOSPITAL NHS TRUST", "org_id": "RAP", "post_code": "N18 1QX" }, "geometry": { "type": "Point", "coordinates": [ -0.0750372, 51.6134549 ] } },
{ "type": "Feature", "properties": { "name": "NORTH STAFFORDSHIRE COMBINED HEALTHCARE NHS TRUST", "org_id": "RLY", "post_code": "ST4 8HH" }, "geometry": { "type": "Point", "coordinates": [ -2.1678099, 52.96837 ] } },
{ "type": "Feature", "properties": { "name": "NORTH TEES AND HARTLEPOOL NHS FOUNDATION TRUST", "org_id": "RVW", "post_code": "TS24 9AH" }, "geometry": { "type": "Point", "coordinates": [ -1.228027, 54.7021082 ] } },
{ "type": "Feature", "properties": { "name": "NORTHUMBRIA HEALTHCARE NHS FOUNDATION TRUST", "org_id": "RTF", "post_code": "NE29 8NH" }, "geometry": { "type": "Point", "coordinates": [ -1.4653033, 55.0264714 ] } },
{ "type": "Feature", "properties": { "name": "NORTH WEST AMBULANCE SERVICE NHS TRUST", "org_id": "RX7", "post_code": "BL1 5DD" }, "geometry": { "type": "Point", "coordinates": [ -2.47581, 53.579 ] } },
{ "type": "Feature", "properties": { "name": "NORTH WEST ANGLIA NHS FOUNDATION TRUST", "org_id": "RGN", "post_code": "PE3 9GZ" }, "geometry": { "type": "Point", "coordinates": [ -0.278872888888889, 52.5846459 ] } },
{ "type": "Feature", "properties": { "name": "NORTH WEST BOROUGHS HEALTHCARE NHS FOUNDATION TRUST", "org_id": "RTV", "post_code": "WA2 8WA" }, "geometry": { "type": "Point", "coordinates": [ -2.6081423, 53.4283563 ] } },
{ "type": "Feature", "properties": { "name": "NORTH WEST LONDON HOSPITALS NHS TRUST", "org_id": "RV8", "post_code": "HA1 3UJ" }, "geometry": { "type": "Point", "coordinates": [ -0.3215279, 51.57518 ] } },
{ "type": "Feature", "properties": { "name": "NOTTINGHAMSHIRE HEALTHCARE NHS FOUNDATION TRUST", "org_id": "RHA", "post_code": "NG3 6AA" }, "geometry": { "type": "Point", "coordinates": [ -1.12655, 52.9794709 ] } },
{ "type": "Feature", "properties": { "name": "NOTTINGHAM UNIVERSITY HOSPITALS NHS TRUST", "org_id": "RX1", "post_code": "NG7 2UH" }, "geometry": { "type": "Point", "coordinates": [ -1.185488929411765, 52.9434616 ] } },
{ "type": "Feature", "properties": { "name": "NUFFIELD ORTHOPAEDIC CENTRE NHS TRUST", "org_id": "RBF", "post_code": "OX3 7LD" }, "geometry": { "type": "Point", "coordinates": [ -1.20898, 51.75409 ] } },
{ "type": "Feature", "properties": { "name": "OXFORD HEALTH NHS FOUNDATION TRUST", "org_id": "RNU", "post_code": "OX3 7JX" }, "geometry": { "type": "Point", "coordinates": [ -1.22232, 51.7508399 ] } },
{ "type": "Feature", "properties": { "name": "OXFORD UNIVERSITY HOSPITALS NHS FOUNDATION TRUST", "org_id": "RTH", "post_code": "OX3 9DU" }, "geometry": { "type": "Point", "coordinates": [ -1.2204345, 51.764955 ] } },
{ "type": "Feature", "properties": { "name": "OXLEAS NHS FOUNDATION TRUST", "org_id": "RPG", "post_code": "DA2 7WG" }, "geometry": { "type": "Point", "coordinates": [ 0.17474, 51.43479 ] } },
{ "type": "Feature", "properties": { "name": "PENNINE ACUTE HOSPITALS NHS TRUST", "org_id": "RW6", "post_code": "M8 5RB" }, "geometry": { "type": "Point", "coordinates": [ -2.2295, 53.51788 ] } },
{ "type": "Feature", "properties": { "name": "PENNINE CARE NHS FOUNDATION TRUST", "org_id": "RT2", "post_code": "OL6 7SR" }, "geometry": { "type": "Point", "coordinates": [ -2.09998, 53.48581 ] } },
{ "type": "Feature", "properties": { "name": "POOLE HOSPITAL NHS FOUNDATION TRUST", "org_id": "RD3", "post_code": "BH15 2JB" }, "geometry": { "type": "Point", "coordinates": [ -1.9729168, 50.7213477 ] } },
{ "type": "Feature", "properties": { "name": "PORTSMOUTH HOSPITALS UNIVERSITY NATIONAL HEALTH SERVICE TRUST", "org_id": "RHU", "post_code": "PO6 3LY" }, "geometry": { "type": "Point", "coordinates": [ -1.071349575, 50.84952205 ] } },
{ "type": "Feature", "properties": { "name": "PUBLIC HEALTH WALES NHS TRUST", "org_id": "RYT", "post_code": "CF10 4BZ" }, "geometry": { "type": "Point", "coordinates": [ -3.1699144, 51.47679195 ] } },
{ "type": "Feature", "properties": { "name": "QUEEN VICTORIA HOSPITAL NHS FOUNDATION TRUST", "org_id": "RPC", "post_code": "RH19 3DZ" }, "geometry": { "type": "Point", "coordinates": [ -0.001661988888889, 51.135523872222223 ] } },
{ "type": "Feature", "properties": { "name": "ROTHERHAM DONCASTER AND SOUTH HUMBER NHS FOUNDATION TRUST", "org_id": "RXE", "post_code": "DN4 8QN" }, "geometry": { "type": "Point", "coordinates": [ -1.14598, 53.4948 ] } },
{ "type": "Feature", "properties": { "name": "ROYAL BERKSHIRE NHS FOUNDATION TRUST", "org_id": "RHW", "post_code": "RG1 5AN" }, "geometry": { "type": "Point", "coordinates": [ -0.957996833333333, 51.450099233333333 ] } },
{ "type": "Feature", "properties": { "name": "ROYAL BROMPTON & HAREFIELD NHS FOUNDATION TRUST", "org_id": "RT3", "post_code": "SW3 6NP" }, "geometry": { "type": "Point", "coordinates": [ -0.17085, 51.48974 ] } },
{ "type": "Feature", "properties": { "name": "ROYAL CORNWALL HOSPITALS NHS TRUST", "org_id": "REF", "post_code": "TR1 3LJ" }, "geometry": { "type": "Point", "coordinates": [ -5.0931487, 50.2663955 ] } },
{ "type": "Feature", "properties": { "name": "ROYAL DEVON UNIVERSITY HEALTHCARE NHS FOUNDATION TRUST", "org_id": "RH8", "post_code": "EX2 5DW" }, "geometry": { "type": "Point", "coordinates": [ -3.5083626, 50.717541133333334 ] } },
{ "type": "Feature", "properties": { "name": "ROYAL FREE LONDON NHS FOUNDATION TRUST", "org_id": "RAL", "post_code": "NW3 2QG" }, "geometry": { "type": "Point", "coordinates": [ -0.1652263, 51.553116 ] } },
{ "type": "Feature", "properties": { "name": "ROYAL LIVERPOOL AND BROADGREEN UNIVERSITY HOSPITALS NHS TRUST", "org_id": "RQ6", "post_code": "L7 8XP" }, "geometry": { "type": "Point", "coordinates": [ -2.9648089, 53.4106201 ] } },
{ "type": "Feature", "properties": { "name": "ROYAL NATIONAL ORTHOPAEDIC HOSPITAL NHS TRUST", "org_id": "RAN", "post_code": "HA7 4LP" }, "geometry": { "type": "Point", "coordinates": [ -0.31044, 51.63257 ] } },
{ "type": "Feature", "properties": { "name": "ROYAL PAPWORTH HOSPITAL NHS FOUNDATION TRUST", "org_id": "RGM", "post_code": "CB2 0AY" }, "geometry": { "type": "Point", "coordinates": [ 0.1359492, 52.1735144 ] } },
{ "type": "Feature", "properties": { "name": "ROYAL SURREY COUNTY HOSPITAL NHS FOUNDATION TRUST", "org_id": "RA2", "post_code": "GU2 7XX" }, "geometry": { "type": "Point", "coordinates": [ -0.608939075, 51.2413044 ] } },
{ "type": "Feature", "properties": { "name": "ROYAL UNITED HOSPITALS BATH NHS FOUNDATION TRUST", "org_id": "RD1", "post_code": "BA1 3NG" }, "geometry": { "type": "Point", "coordinates": [ -2.39161986, 51.39222078 ] } },
{ "type": "Feature", "properties": { "name": "ROYAL WEST SUSSEX NHS TRUST", "org_id": "RPR", "post_code": "PO19 6SE" }, "geometry": { "type": "Point", "coordinates": [ -0.7690264, 50.8439405 ] } },
{ "type": "Feature", "properties": { "name": "SALISBURY NHS FOUNDATION TRUST", "org_id": "RNZ", "post_code": "SP2 8BJ" }, "geometry": { "type": "Point", "coordinates": [ -1.78982, 51.04395 ] } },
{ "type": "Feature", "properties": { "name": "SANDWELL AND WEST BIRMINGHAM HOSPITALS NHS TRUST", "org_id": "RXK", "post_code": "B18 7QH" }, "geometry": { "type": "Point", "coordinates": [ -1.9302035, 52.4876369 ] } },
{ "type": "Feature", "properties": { "name": "SCARBOROUGH AND NORTH EAST YORKSHIRE HEALTH CARE NHS TRUST", "org_id": "RCC", "post_code": "YO12 6QL" }, "geometry": { "type": "Point", "coordinates": [ -0.4362387, 54.2822481 ] } },
{ "type": "Feature", "properties": { "name": "SHEFFIELD CHILDREN'S NHS FOUNDATION TRUST", "org_id": "RCU", "post_code": "S10 2TH" }, "geometry": { "type": "Point", "coordinates": [ -1.4907278, 53.3805265 ] } },
{ "type": "Feature", "properties": { "name": "SHEFFIELD TEACHING HOSPITALS NHS FOUNDATION TRUST", "org_id": "RHQ", "post_code": "S5 7AU" }, "geometry": { "type": "Point", "coordinates": [ -1.45673255, 53.40992015 ] } },
{ "type": "Feature", "properties": { "name": "SHERWOOD FOREST HOSPITALS NHS FOUNDATION TRUST", "org_id": "RK5", "post_code": "NG17 4JL" }, "geometry": { "type": "Point", "coordinates": [ -1.2358982, 53.1357303 ] } },
{ "type": "Feature", "properties": { "name": "SHROPSHIRE COMMUNITY HEALTH NHS TRUST", "org_id": "R1D", "post_code": "SY3 8XL" }, "geometry": { "type": "Point", "coordinates": [ -2.78937, 52.70584 ] } },
{ "type": "Feature", "properties": { "name": "SOLENT NHS TRUST", "org_id": "R1C", "post_code": "SO19 8BR" }, "geometry": { "type": "Point", "coordinates": [ -1.3297985, 50.9016066 ] } },
{ "type": "Feature", "properties": { "name": "SOMERSET NHS FOUNDATION TRUST", "org_id": "RH5", "post_code": "TA1 5DA" }, "geometry": { "type": "Point", "coordinates": [ -3.1194584, 51.01131495 ] } },
{ "type": "Feature", "properties": { "name": "SOUTH CENTRAL AMBULANCE SERVICE NHS FOUNDATION TRUST", "org_id": "RYE", "post_code": "OX26 6HR" }, "geometry": { "type": "Point", "coordinates": [ -1.14980004, 51.89152508 ] } },
{ "type": "Feature", "properties": { "name": "SOUTH EAST COAST AMBULANCE SERVICE NHS FOUNDATION TRUST", "org_id": "RYD", "post_code": "RH10 9BG" }, "geometry": { "type": "Point", "coordinates": [ -0.16871155, 51.132702 ] } },
{ "type": "Feature", "properties": { "name": "SOUTHERN HEALTH NHS FOUNDATION TRUST", "org_id": "RW1", "post_code": "SO40 2RZ" }, "geometry": { "type": "Point", "coordinates": [ -1.5274733, 50.93065535 ] } },
{ "type": "Feature", "properties": { "name": "SOUTH ESSEX PARTNERSHIP UNIVERSITY NHS FOUNDATION TRUST", "org_id": "RWN", "post_code": "SS11 7XX" }, "geometry": { "type": "Point", "coordinates": [ 0.5396917, 51.6310333 ] } },
{ "type": "Feature", "properties": { "name": "SOUTH LONDON AND MAUDSLEY NHS FOUNDATION TRUST", "org_id": "RV5", "post_code": "BR3 3BX" }, "geometry": { "type": "Point", "coordinates": [ -0.0311969, 51.3826416 ] } },
{ "type": "Feature", "properties": { "name": "SOUTH LONDON HEALTHCARE NHS TRUST", "org_id": "RYQ", "post_code": "DA14 6LT" }, "geometry": { "type": "Point", "coordinates": [ 0.10416845, 51.41846575 ] } },
{ "type": "Feature", "properties": { "name": "SOUTHPORT AND ORMSKIRK HOSPITAL NHS TRUST", "org_id": "RVY", "post_code": "PR8 6PN" }, "geometry": { "type": "Point", "coordinates": [ -2.9788199, 53.63355 ] } },
{ "type": "Feature", "properties": { "name": "SOUTH TEES HOSPITALS NHS FOUNDATION TRUST", "org_id": "RTR", "post_code": "TS4 3BW" }, "geometry": { "type": "Point", "coordinates": [ -1.214676466666667, 54.551723033333339 ] } },
{ "type": "Feature", "properties": { "name": "SOUTH TYNESIDE AND SUNDERLAND NHS FOUNDATION TRUST", "org_id": "R0B", "post_code": "SR4 7TP" }, "geometry": { "type": "Point", "coordinates": [ -1.4087054, 54.9027696 ] } },
{ "type": "Feature", "properties": { "name": "SOUTH TYNESIDE NHS FOUNDATION TRUST", "org_id": "RE9", "post_code": "NE34 0PL" }, "geometry": { "type": "Point", "coordinates": [ -1.4292464, 54.9716368 ] } },
{ "type": "Feature", "properties": { "name": "SOUTH WARWICKSHIRE UNIVERSITY NHS FOUNDATION TRUST", "org_id": "RJC", "post_code": "CV34 5BW" }, "geometry": { "type": "Point", "coordinates": [ -1.5847948, 52.289886 ] } },
{ "type": "Feature", "properties": { "name": "SOUTH WESTERN AMBULANCE SERVICE NHS FOUNDATION TRUST", "org_id": "RYF", "post_code": "EX2 7HY" }, "geometry": { "type": "Point", "coordinates": [ -3.464713725, 50.7203945 ] } },
{ "type": "Feature", "properties": { "name": "SOUTH WEST LONDON AND ST GEORGE'S MENTAL HEALTH NHS TRUST", "org_id": "RQY", "post_code": "SW17 7DJ" }, "geometry": { "type": "Point", "coordinates": [ -0.1702862, 51.4361418 ] } },
{ "type": "Feature", "properties": { "name": "SOUTH WEST YORKSHIRE PARTNERSHIP NHS FOUNDATION TRUST", "org_id": "RXG", "post_code": "WF1 3SP" }, "geometry": { "type": "Point", "coordinates": [ -1.492420475, 53.698392412499999 ] } },
{ "type": "Feature", "properties": { "name": "STAFFORDSHIRE AND STOKE ON TRENT PARTNERSHIP NHS TRUST", "org_id": "R1E", "post_code": "ST5 1QG" }, "geometry": { "type": "Point", "coordinates": [ -2.2285516, 53.0101462 ] } },
{ "type": "Feature", "properties": { "name": "ST GEORGE'S UNIVERSITY HOSPITALS NHS FOUNDATION TRUST", "org_id": "RJ7", "post_code": "SW17 0QT" }, "geometry": { "type": "Point", "coordinates": [ -0.174634866666667, 51.42662115 ] } },
{ "type": "Feature", "properties": { "name": "STOCKPORT NHS FOUNDATION TRUST", "org_id": "RWJ", "post_code": "SK2 7JE" }, "geometry": { "type": "Point", "coordinates": [ -2.1320199, 53.38378 ] } },
{ "type": "Feature", "properties": { "name": "SURREY AND BORDERS PARTNERSHIP NHS FOUNDATION TRUST", "org_id": "RXX", "post_code": "KT22 7AD" }, "geometry": { "type": "Point", "coordinates": [ -0.33563, 51.29759 ] } },
{ "type": "Feature", "properties": { "name": "SURREY AND SUSSEX HEALTHCARE NHS TRUST", "org_id": "RTP", "post_code": "RH1 5RH" }, "geometry": { "type": "Point", "coordinates": [ -0.1620099, 51.21919 ] } },
{ "type": "Feature", "properties": { "name": "SUSSEX COMMUNITY NHS FOUNDATION TRUST", "org_id": "RDR", "post_code": "BN2 3EW" }, "geometry": { "type": "Point", "coordinates": [ -0.1138015, 50.8304866 ] } },
{ "type": "Feature", "properties": { "name": "SUSSEX PARTNERSHIP NHS FOUNDATION TRUST", "org_id": "RX2", "post_code": "BN13 3EP" }, "geometry": { "type": "Point", "coordinates": [ -0.41116, 50.8412099 ] } },
{ "type": "Feature", "properties": { "name": "TAMESIDE AND GLOSSOP INTEGRATED CARE NHS FOUNDATION TRUST", "org_id": "RMP", "post_code": "OL6 9RW" }, "geometry": { "type": "Point", "coordinates": [ -2.07143, 53.49153 ] } },
{ "type": "Feature", "properties": { "name": "TAUNTON AND SOMERSET NHS FOUNDATION TRUST", "org_id": "RBA", "post_code": "TA1 5DA" }, "geometry": { "type": "Point", "coordinates": [ -3.1194584, 51.01131495 ] } },
{ "type": "Feature", "properties": { "name": "TAVISTOCK AND PORTMAN NHS FOUNDATION TRUST", "org_id": "RNK", "post_code": "NW3 5BA" }, "geometry": { "type": "Point", "coordinates": [ -0.17544, 51.5469 ] } },
{ "type": "Feature", "properties": { "name": "TEES AND NORTH EAST YORKSHIRE NHS TRUST", "org_id": "RVX", "post_code": "TS6 0SZ" }, "geometry": { "type": "Point", "coordinates": [ -1.1468, 54.54568 ] } },
{ "type": "Feature", "properties": { "name": "TEES, ESK AND WEAR VALLEYS NHS FOUNDATION TRUST", "org_id": "RX3", "post_code": "DL2 2TS" }, "geometry": { "type": "Point", "coordinates": [ -1.5912038, 54.5432286 ] } },
{ "type": "Feature", "properties": { "name": "THE CHRISTIE NHS FOUNDATION TRUST", "org_id": "RBV", "post_code": "M20 4BX" }, "geometry": { "type": "Point", "coordinates": [ -2.2302095, 53.4296417 ] } },
{ "type": "Feature", "properties": { "name": "THE CLATTERBRIDGE CANCER CENTRE NHS FOUNDATION TRUST", "org_id": "REN", "post_code": "CH63 4JY" }, "geometry": { "type": "Point", "coordinates": [ -3.0253121, 53.3316004 ] } },
{ "type": "Feature", "properties": { "name": "THE DUDLEY GROUP NHS FOUNDATION TRUST", "org_id": "RNA", "post_code": "DY1 2HQ" }, "geometry": { "type": "Point", "coordinates": [ -2.12124055, 52.5024733 ] } },
{ "type": "Feature", "properties": { "name": "THE HILLINGDON HOSPITALS NHS FOUNDATION TRUST", "org_id": "RAS", "post_code": "UB8 3NN" }, "geometry": { "type": "Point", "coordinates": [ -0.4615393, 51.5254692 ] } },
{ "type": "Feature", "properties": { "name": "THE NEWCASTLE UPON TYNE HOSPITALS NHS FOUNDATION TRUST", "org_id": "RTD", "post_code": "NE7 7DN" }, "geometry": { "type": "Point", "coordinates": [ -1.5937828, 55.002468 ] } },
{ "type": "Feature", "properties": { "name": "THE PRINCESS ALEXANDRA HOSPITAL NHS TRUST", "org_id": "RQW", "post_code": "CM20 1QX" }, "geometry": { "type": "Point", "coordinates": [ 0.08546, 51.77153 ] } },
{ "type": "Feature", "properties": { "name": "THE QUEEN ELIZABETH HOSPITAL, KING'S LYNN, NHS FOUNDATION TRUST", "org_id": "RCX", "post_code": "PE30 4ET" }, "geometry": { "type": "Point", "coordinates": [ 0.4436087, 52.7556864 ] } },
{ "type": "Feature", "properties": { "name": "THE ROBERT JONES AND AGNES HUNT ORTHOPAEDIC HOSPITAL NHS FOUNDATION TRUST", "org_id": "RL1", "post_code": "SY10 7AG" }, "geometry": { "type": "Point", "coordinates": [ -3.03269, 52.88421 ] } },
{ "type": "Feature", "properties": { "name": "THE ROTHERHAM NHS FOUNDATION TRUST", "org_id": "RFR", "post_code": "S60 2UD" }, "geometry": { "type": "Point", "coordinates": [ -1.34288, 53.41397 ] } },
{ "type": "Feature", "properties": { "name": "THE ROYAL BOURNEMOUTH AND CHRISTCHURCH HOSPITALS NHS FOUNDATION TRUST", "org_id": "RDZ", "post_code": "BH7 7DW" }, "geometry": { "type": "Point", "coordinates": [ -1.82095565, 50.74792185 ] } },
{ "type": "Feature", "properties": { "name": "THE ROYAL MARSDEN NHS FOUNDATION TRUST", "org_id": "RPY", "post_code": "SW3 6JJ" }, "geometry": { "type": "Point", "coordinates": [ -0.17257, 51.49056 ] } },
{ "type": "Feature", "properties": { "name": "THE ROYAL ORTHOPAEDIC HOSPITAL NHS FOUNDATION TRUST", "org_id": "RRJ", "post_code": "B31 2AP" }, "geometry": { "type": "Point", "coordinates": [ -1.9607413, 52.4211275 ] } },
{ "type": "Feature", "properties": { "name": "THE ROYAL WOLVERHAMPTON NHS TRUST", "org_id": "RL4", "post_code": "WV10 0QP" }, "geometry": { "type": "Point", "coordinates": [ -2.09556, 52.59972 ] } },
{ "type": "Feature", "properties": { "name": "THE SHREWSBURY AND TELFORD HOSPITAL NHS TRUST", "org_id": "RXW", "post_code": "SY3 8XQ" }, "geometry": { "type": "Point", "coordinates": [ -2.793386066666667, 52.7088654 ] } },
{ "type": "Feature", "properties": { "name": "THE WALTON CENTRE NHS FOUNDATION TRUST", "org_id": "RET", "post_code": "L9 7LJ" }, "geometry": { "type": "Point", "coordinates": [ -2.931, 53.4664 ] } },
{ "type": "Feature", "properties": { "name": "TORBAY AND SOUTH DEVON NHS FOUNDATION TRUST", "org_id": "RA9", "post_code": "TQ2 7AA" }, "geometry": { "type": "Point", "coordinates": [ -3.553696333333334, 50.482286033333331 ] } },
{ "type": "Feature", "properties": { "name": "TRAFFORD HEALTHCARE NHS TRUST", "org_id": "RM4", "post_code": "M41 5SL" }, "geometry": { "type": "Point", "coordinates": [ -2.37068, 53.45406 ] } },
{ "type": "Feature", "properties": { "name": "UNITED LINCOLNSHIRE HOSPITALS NHS TRUST", "org_id": "RWD", "post_code": "LN2 5QY" }, "geometry": { "type": "Point", "coordinates": [ -0.51964, 53.23358 ] } },
{ "type": "Feature", "properties": { "name": "UNIVERSITY COLLEGE LONDON HOSPITALS NHS FOUNDATION TRUST", "org_id": "RRV", "post_code": "NW1 2PG" }, "geometry": { "type": "Point", "coordinates": [ -0.13741, 51.52573 ] } },
{ "type": "Feature", "properties": { "name": "UNIVERSITY HOSPITAL OF SOUTH MANCHESTER NHS FOUNDATION TRUST", "org_id": "RM2", "post_code": "M23 9LT" }, "geometry": { "type": "Point", "coordinates": [ -2.29318, 53.38792 ] } },
{ "type": "Feature", "properties": { "name": "UNIVERSITY HOSPITALS BIRMINGHAM NHS FOUNDATION TRUST", "org_id": "RRK", "post_code": "B15 2GW" }, "geometry": { "type": "Point", "coordinates": [ -1.9384003, 52.4532961 ] } },
{ "type": "Feature", "properties": { "name": "UNIVERSITY HOSPITALS BRISTOL AND WESTON NHS FOUNDATION TRUST", "org_id": "RA7", "post_code": "BS1 3NU" }, "geometry": { "type": "Point", "coordinates": [ -2.59328625, 51.45914555 ] } },
{ "type": "Feature", "properties": { "name": "UNIVERSITY HOSPITALS COVENTRY AND WARWICKSHIRE NHS TRUST", "org_id": "RKB", "post_code": "CV2 2DX" }, "geometry": { "type": "Point", "coordinates": [ -1.4383999, 52.42121 ] } },
{ "type": "Feature", "properties": { "name": "UNIVERSITY HOSPITALS DORSET NHS FOUNDATION TRUST", "org_id": "R0D", "post_code": "BH15 2JB" }, "geometry": { "type": "Point", "coordinates": [ -1.9729168, 50.7213477 ] } },
{ "type": "Feature", "properties": { "name": "UNIVERSITY HOSPITALS OF DERBY AND BURTON NHS FOUNDATION TRUST", "org_id": "RTG", "post_code": "DE22 3NE" }, "geometry": { "type": "Point", "coordinates": [ -1.513825592307692, 52.910769169230768 ] } },
{ "type": "Feature", "properties": { "name": "UNIVERSITY HOSPITALS OF LEICESTER NHS TRUST", "org_id": "RWE", "post_code": "LE1 5WW" }, "geometry": { "type": "Point", "coordinates": [ -1.1356811, 52.6282994 ] } },
{ "type": "Feature", "properties": { "name": "UNIVERSITY HOSPITALS OF MORECAMBE BAY NHS FOUNDATION TRUST", "org_id": "RTX", "post_code": "LA9 7RG" }, "geometry": { "type": "Point", "coordinates": [ -2.7324755, 54.3066377 ] } },
{ "type": "Feature", "properties": { "name": "UNIVERSITY HOSPITALS OF NORTH MIDLANDS NHS TRUST", "org_id": "RJE", "post_code": "ST4 6QG" }, "geometry": { "type": "Point", "coordinates": [ -2.2129189, 53.00167625 ] } },
{ "type": "Feature", "properties": { "name": "UNIVERSITY HOSPITAL SOUTHAMPTON NHS FOUNDATION TRUST", "org_id": "RHM", "post_code": "SO16 6YD" }, "geometry": { "type": "Point", "coordinates": [ -1.434252983333333, 50.932841183333331 ] } },
{ "type": "Feature", "properties": { "name": "UNIVERSITY HOSPITALS PLYMOUTH NHS TRUST", "org_id": "RK9", "post_code": "PL6 8DH" }, "geometry": { "type": "Point", "coordinates": [ -4.114495, 50.4160585 ] } },
{ "type": "Feature", "properties": { "name": "UNIVERSITY HOSPITALS SUSSEX NHS FOUNDATION TRUST", "org_id": "RYR", "post_code": "BN11 2DH" }, "geometry": { "type": "Point", "coordinates": [ -0.3639575, 50.8165539 ] } },
{ "type": "Feature", "properties": { "name": "VELINDRE NHS TRUST", "org_id": "RQF", "post_code": "CF15 7QZ" }, "geometry": { "type": "Point", "coordinates": [ -3.27787, 51.56592 ] } },
{ "type": "Feature", "properties": { "name": "WALSALL HEALTHCARE NHS TRUST", "org_id": "RBK", "post_code": "WS2 9PS" }, "geometry": { "type": "Point", "coordinates": [ -1.99850025, 52.5827874 ] } },
{ "type": "Feature", "properties": { "name": "WARRINGTON AND HALTON TEACHING HOSPITALS NHS FOUNDATION TRUST", "org_id": "RWW", "post_code": "WA5 1QG" }, "geometry": { "type": "Point", "coordinates": [ -2.6089577, 53.3937446 ] } },
{ "type": "Feature", "properties": { "name": "WELSH AMBULANCE SERVICES NHS TRUST", "org_id": "RT4", "post_code": "LL17 0LJ" }, "geometry": { "type": "Point", "coordinates": [ -3.47833, 53.25194 ] } },
{ "type": "Feature", "properties": { "name": "WEST HERTFORDSHIRE TEACHING HOSPITALS NHS TRUST", "org_id": "RWG", "post_code": "WD18 0HB" }, "geometry": { "type": "Point", "coordinates": [ -0.40419, 51.6489199 ] } },
{ "type": "Feature", "properties": { "name": "WEST LONDON NHS TRUST", "org_id": "RKL", "post_code": "UB2 4SD" }, "geometry": { "type": "Point", "coordinates": [ -0.3628311, 51.5066106 ] } },
{ "type": "Feature", "properties": { "name": "WEST MIDDLESEX UNIVERSITY HOSPITAL NHS TRUST", "org_id": "RFW", "post_code": "TW7 6AF" }, "geometry": { "type": "Point", "coordinates": [ -0.324781, 51.4738269 ] } },
{ "type": "Feature", "properties": { "name": "WEST MIDLANDS AMBULANCE SERVICE UNIVERSITY NHS FOUNDATION TRUST", "org_id": "RYA", "post_code": "DY5 1LX" }, "geometry": { "type": "Point", "coordinates": [ -2.11905, 52.48565 ] } },
{ "type": "Feature", "properties": { "name": "WESTON AREA HEALTH NHS TRUST", "org_id": "RA3", "post_code": "BS23 4TQ" }, "geometry": { "type": "Point", "coordinates": [ -2.9718147, 51.3220963 ] } },
{ "type": "Feature", "properties": { "name": "WEST SUFFOLK NHS FOUNDATION TRUST", "org_id": "RGR", "post_code": "IP33 2QZ" }, "geometry": { "type": "Point", "coordinates": [ 0.7085741, 52.231145 ] } },
{ "type": "Feature", "properties": { "name": "WEST SUSSEX HEALTH AND SOCIAL CARE NHS TRUST", "org_id": "RW8", "post_code": "BN13 3EP" }, "geometry": { "type": "Point", "coordinates": [ -0.41116, 50.8412099 ] } },
{ "type": "Feature", "properties": { "name": "WHITTINGTON HEALTH NHS TRUST", "org_id": "RKE", "post_code": "N19 5NF" }, "geometry": { "type": "Point", "coordinates": [ -0.1393414, 51.5665599 ] } },
{ "type": "Feature", "properties": { "name": "WINCHESTER AND EASTLEIGH HEALTHCARE NHS TRUST", "org_id": "RN1", "post_code": "SO22 5DG" }, "geometry": { "type": "Point", "coordinates": [ -1.3294775, 51.0612162 ] } },
{ "type": "Feature", "properties": { "name": "WIRRAL COMMUNITY HEALTH AND CARE NHS FOUNDATION TRUST", "org_id": "RY7", "post_code": "CH42 0LQ" }, "geometry": { "type": "Point", "coordinates": [ -3.02653, 53.38003 ] } },
{ "type": "Feature", "properties": { "name": "WIRRAL UNIVERSITY TEACHING HOSPITAL NHS FOUNDATION TRUST", "org_id": "RBL", "post_code": "CH49 5PE" }, "geometry": { "type": "Point", "coordinates": [ -3.0956782, 53.3698806 ] } },
{ "type": "Feature", "properties": { "name": "WORCESTERSHIRE ACUTE HOSPITALS NHS TRUST", "org_id": "RWP", "post_code": "WR5 1DD" }, "geometry": { "type": "Point", "coordinates": [ -2.1840806, 52.1920534 ] } },
{ "type": "Feature", "properties": { "name": "WRIGHTINGTON, WIGAN AND LEIGH NHS FOUNDATION TRUST", "org_id": "RRF", "post_code": "WN1 2NN" }, "geometry": { "type": "Point", "coordinates": [ -2.6296517, 53.5578171 ] } },
{ "type": "Feature", "properties": { "name": "WYE VALLEY NHS TRUST", "org_id": "RLQ", "post_code": "HR1 2ER" }, "geometry": { "type": "Point", "coordinates": [ -2.70571, 52.05701 ] } },
{ "type": "Feature", "properties": { "name": "YEOVIL DISTRICT HOSPITAL NHS FOUNDATION TRUST", "org_id": "RA4", "post_code": "BA21 4AT" }, "geometry": { "type": "Point", "coordinates": [ -2.6344361, 50.9446928 ] } },
{ "type": "Feature", "properties": { "name": "YORK AND SCARBOROUGH TEACHING HOSPITALS NHS FOUNDATION TRUST", "org_id": "RCB", "post_code": "YO31 8HE" }, "geometry": { "type": "Point", "coordinates": [ -1.0839298, 53.9704476 ] } },
{ "type": "Feature", "properties": { "name": "YORKSHIRE AMBULANCE SERVICE NHS TRUST", "org_id": "RX8", "post_code": "WF2 0XQ" }, "geometry": { "type": "Point", "coordinates": [ -1.5179028, 53.708506533333335 ] } }
]
}
